# 
# Header Description:
# 
# Version: v3.0.6.2 Platform: 12 Manufacturer: samsung Model: SM-G990B
# 
# Raw,utcTimeMillis,TimeNanos,LeapSecond,TimeUncertaintyNanos,FullBiasNanos,BiasNanos,BiasUncertaintyNanos,DriftNanosPerSecond,DriftUncertaintyNanosPerSecond,HardwareClockDiscontinuityCount,Svid,TimeOffsetNanos,State,ReceivedSvTimeNanos,ReceivedSvTimeUncertaintyNanos,Cn0DbHz,PseudorangeRateMetersPerSecond,PseudorangeRateUncertaintyMetersPerSecond,AccumulatedDeltaRangeState,AccumulatedDeltaRangeMeters,AccumulatedDeltaRangeUncertaintyMeters,CarrierFrequencyHz,CarrierCycles,CarrierPhase,CarrierPhaseUncertainty,MultipathIndicator,SnrInDb,ConstellationType,AgcDb,BasebandCn0DbHz,FullInterSignalBiasNanos,FullInterSignalBiasUncertaintyNanos,SatelliteInterSignalBiasNanos,SatelliteInterSignalBiasUncertaintyNanos,CodeType,ChipsetElapsedRealtimeNanos
# 
# UncalAccel,utcTimeMillis,elapsedRealtimeNanos,UncalAccelXMps2,UncalAccelYMps2,UncalAccelZMps2,BiasXMps2,BiasYMps2,BiasZMps2
# 
# Accel,utcTimeMillis,elapsedRealtimeNanos,AccelXMps2,AccelYMps2,AccelZMps2
# 
# UncalGyro,utcTimeMillis,elapsedRealtimeNanos,UncalGyroXRadPerSec,UncalGyroYRadPerSec,UncalGyroZRadPerSec,DriftXRadPerSec,DriftYRadPerSec,DriftZRadPerSec
# 
# Gyro,utcTimeMillis,elapsedRealtimeNanos,GyroXRadPerSec,GyroYRadPerSec,GyroZRadPerSec
# 
# UncalMag,utcTimeMillis,elapsedRealtimeNanos,UncalMagXMicroT,UncalMagYMicroT,UncalMagZMicroT,BiasXMicroT,BiasYMicroT,BiasZMicroT
# 
# Mag,utcTimeMillis,elapsedRealtimeNanos,MagXMicroT,MagYMicroT,MagZMicroT
# 
# OrientationDeg,utcTimeMillis,elapsedRealtimeNanos,yawDeg,rollDeg,pitchDeg
# 
# Fix,Provider,LatitudeDegrees,LongitudeDegrees,AltitudeMeters,SpeedMps,AccuracyMeters,BearingDegrees,UnixTimeMillis,SpeedAccuracyMps,BearingAccuracyDegrees,elapsedRealtimeNanos,VerticalAccuracyMeters,MockLocation,NumberOfUsedSignals,VerticalSpeedAccuracyMps,SolutionType,AgeOfDifferentialSec
# 
# Nav,Svid,Type,Status,MessageId,Sub-messageId,Data(Bytes)
# 
# Status,UnixTimeMillis,SignalCount,SignalIndex,ConstellationType,Svid,CarrierFrequencyHz,Cn0DbHz,AzimuthDegrees,ElevationDegrees,UsedInFix,HasAlmanacData,HasEphemerisData,BasebandCn0DbHz
# 
# Agc,utcTimeMillis,TimeNanos,LeapSecond,TimeUncertaintyNanos,FullBiasNanos,BiasNanos,BiasUncertaintyNanos,DriftNanosPerSecond,DriftUncertaintyNanosPerSecond,HardwareClockDiscontinuityCount,AgcDb,CarrierFrequencyHz,ConstellationType
# 
Status,,16,0,1,2,1575420030,30.60,101.0,36.0,1,1,1,25.6
Status,,16,1,1,3,1575420030,29.20,239.0,30.0,1,1,1,24.2
Status,,16,2,1,8,1575420030,32.10,179.0,47.0,1,1,1,27.1
Status,,16,3,1,14,1575420030,24.10,293.0,18.0,1,1,1,19.1
Status,,16,4,1,27,1575420030,24.50,158.0,18.0,1,1,1,19.5
Status,,16,5,2,136,1575420030,38.20,0.0,0.0,0,0,0,33.2
Status,,16,6,3,1,1602562560,28.80,188.0,57.0,1,1,0,23.8
Status,,16,7,5,29,1561097980,24.20,139.0,51.0,0,1,0,19.2
Status,,16,8,5,22,1561097980,28.10,213.0,17.0,0,1,0,23.1
Status,,16,9,5,20,1561097980,23.10,56.0,51.0,0,1,0,18.1
Status,,16,10,5,19,1561097980,27.60,184.0,68.0,0,1,0,22.6
Status,,16,11,6,7,1575420030,16.80,39.0,17.0,1,1,0,11.8
Status,,16,12,6,10,1575420030,23.30,296.0,29.0,1,1,0,18.3
Status,,16,13,6,19,1575420030,31.80,159.0,40.0,1,1,0,26.8
Status,,16,14,6,24,1575420030,23.30,268.0,19.0,1,1,0,18.3
Status,,16,15,6,33,1575420030,20.90,83.0,63.0,1,1,0,15.9
Raw,1684338443417,358673263000000,18,,-1368014988154224100,-0.39603710174560547,62.09328421391547,-0.9853468249132206,13.643985597995265,3,2,0.0,16399,316061340946034,24,35.6,411.7198181152344,0.6903843283653259,16,0.0,0.0,1575420030,,,,0,,1,0.1,30.6,0.0,0.0,,,C,367970958702336
Raw,1684338443417,358673263000000,18,,-1368014988154224100,-0.39603710174560547,62.09328421391547,-0.9853468249132206,13.643985597995265,3,3,0.0,16399,316061341515657,27,34.2,-569.9105224609375,0.6019999980926514,16,0.0,0.0,1575420030,,,,0,,1,0.1,29.200000000000003,0.0,0.0,,,C,367970958702336
Raw,1684338443417,358673263000000,18,,-1368014988154224100,-0.39603710174560547,62.09328421391547,-0.9853468249132206,13.643985597995265,3,8,0.0,16399,316061344760521,19,37.1,514.1456909179688,0.0632086768746376,16,0.0,0.0,1575420030,,,,0,,1,0.1,32.1,0.0,0.0,,,C,367970958702336
Raw,1684338443417,358673263000000,18,,-1368014988154224100,-0.39603710174560547,62.09328421391547,-0.9853468249132206,13.643985597995265,3,27,0.0,16399,316061336728677,53,29.5,719.2815551757812,0.8495000004768372,16,0.0,0.0,1575420030,,,,0,,1,0.1,24.5,0.0,0.0,,,C,367970958702336
Raw,1684338443417,358673263000000,18,,-1368014988154224100,-0.39603710174560547,62.09328421391547,-0.9853468249132206,13.643985597995265,3,1,0.0,49359,67643350907656,31,32.8,-465.7873229980469,0.6784999966621399,16,0.0,0.0,1602562560,,,,0,,3,-0.37,28.799999999999997,3852.01806640625,27.5080509185791,,,C,367970958702336
Raw,1684338443417,358673263000000,18,,-1368014988154224100,-0.39603710174560547,62.09328421391547,-0.9853468249132206,13.643985597995265,3,29,0.0,16399,316047341774522,53,28.5,403.3021545410156,1.6080000400543213,16,0.0,0.0,1561097980,,,,0,,5,-0.35,24.2,-1601.797119140625,29.0697021484375,,,I,367970958702336
Raw,1684338443417,358673263000000,18,,-1368014988154224100,-0.39603710174560547,62.09328421391547,-0.9853468249132206,13.643985597995265,3,22,0.0,16399,316047332522422,31,32.4,-631.185791015625,0.6754999756813049,16,0.0,0.0,1561097980,,,,0,,5,-0.35,28.099999999999998,-1601.797119140625,29.0697021484375,,,I,367970958702336
Raw,1684338443417,358673263000000,18,,-1368014988154224100,-0.39603710174560547,62.09328421391547,-0.9853468249132206,13.643985597995265,3,20,0.0,16399,316047342149228,61,27.4,344.0771789550781,1.0205000638961792,16,0.0,0.0,1561097980,,,,0,,5,-0.35,23.099999999999998,-1601.797119140625,29.0697021484375,,,I,367970958702336
Raw,1684338443417,358673263000000,18,,-1368014988154224100,-0.39603710174560547,62.09328421391547,-0.9853468249132206,13.643985597995265,3,19,0.0,16399,316047343350111,35,31.9,-236.5158233642578,0.7489999532699585,16,0.0,0.0,1561097980,,,,0,,5,-0.35,27.599999999999998,-1601.797119140625,29.0697021484375,,,I,367970958702336
Raw,1684338443417,358673263000000,18,,-1368014988154224100,-0.39603710174560547,62.09328421391547,-0.9853468249132206,13.643985597995265,3,10,0.0,23567,316061330283141,61,27.6,-415.5442810058594,0.9965000152587891,16,0.0,0.0,1575420030,,,,0,,6,0.11,23.3,-1473.8114013671875,17.877229690551758,,,C,367970958702336
Raw,1684338443417,358673263000000,18,,-1368014988154224100,-0.39603710174560547,62.09328421391547,-0.9853468249132206,13.643985597995265,3,19,0.0,23567,316061331078245,21,36.1,-475.07232666015625,0.034105487167835236,16,0.0,0.0,1575420030,,,,0,,6,0.11,31.8,-1473.8114013671875,17.877229690551758,,,C,367970958702336
Raw,1684338443417,358673263000000,18,,-1368014988154224100,-0.39603710174560547,62.09328421391547,-0.9853468249132206,13.643985597995265,3,24,0.0,23567,316061327488075,61,27.6,359.3791198730469,1.0010000467300415,16,0.0,0.0,1575420030,,,,0,,6,0.11,23.3,-1473.8114013671875,17.877229690551758,,,C,367970958702336
Raw,1684338443417,358673263000000,18,,-1368014988154224100,-0.39603710174560547,62.09328421391547,-0.9853468249132206,13.643985597995265,3,33,0.0,23567,316061337424088,92,25.2,171.6353759765625,2.631999969482422,16,0.0,0.0,1575420030,,,,0,,6,0.11,20.9,-1473.8114013671875,17.877229690551758,,,C,367970958702336
Fix,GPS,45.4090845800,11.8946387500,107.45068359375,0.0,4.6309323,,1684338444000,0.41012195,,367971545066815,7.425992,0,,,,
Fix,FLP,45.4090807000,11.8946195000,62.400001525878906,0.0016738318,6.444,,1684338443868,,,367971453757233,2.1465216,0,,,,
Status,1684338444000,16,0,1,2,1575420030,30.40,101.0,36.0,1,1,1,25.4
Status,1684338444000,16,1,1,3,1575420030,29.20,239.0,30.0,1,1,1,24.2
Status,1684338444000,16,2,1,8,1575420030,33.00,179.0,47.0,1,1,1,28.0
Status,1684338444000,16,3,1,14,1575420030,21.80,293.0,18.0,1,1,1,16.8
Status,1684338444000,16,4,1,27,1575420030,24.50,158.0,18.0,1,1,1,19.5
Status,1684338444000,16,5,2,136,1575420030,38.10,0.0,0.0,0,0,0,33.1
Status,1684338444000,16,6,3,1,1602562560,28.00,188.0,57.0,1,1,0,23.0
Status,1684338444000,16,7,5,29,1561097980,24.80,139.0,51.0,0,1,0,19.8
Status,1684338444000,16,8,5,22,1561097980,28.80,213.0,17.0,0,1,0,23.8
Status,1684338444000,16,9,5,20,1561097980,23.10,56.0,51.0,0,1,0,18.1
Status,1684338444000,16,10,5,19,1561097980,27.40,184.0,68.0,0,1,0,22.4
Status,1684338444000,16,11,6,7,1575420030,16.80,39.0,17.0,1,1,0,11.8
Status,1684338444000,16,12,6,10,1575420030,23.30,296.0,29.0,1,1,0,18.3
Status,1684338444000,16,13,6,19,1575420030,32.00,159.0,40.0,1,1,0,27.0
Status,1684338444000,16,14,6,24,1575420030,23.50,268.0,19.0,1,1,0,18.5
Status,1684338444000,16,15,6,33,1575420030,20.90,83.0,63.0,1,1,0,15.9
Raw,1684338444417,358674263000000,18,,-1368014988154224103,-0.33156585693359375,60.50039519323036,0.6594027628957807,13.142940882321053,3,2,0.0,16399,316062340944627,24,35.4,409.9928283691406,0.6903843283653259,16,0.0,0.0,1575420030,,,,0,,1,0.21,30.4,0.0,0.0,,,C,367971957168690
Raw,1684338444417,358674263000000,18,,-1368014988154224103,-0.33156585693359375,60.50039519323036,0.6594027628957807,13.142940882321053,3,3,0.0,16399,316062341517551,27,34.2,-571.42333984375,0.6019999980926514,16,0.0,0.0,1575420030,,,,0,,1,0.21,29.200000000000003,0.0,0.0,,,C,367971957168690
Raw,1684338444417,358674263000000,18,,-1368014988154224103,-0.33156585693359375,60.50039519323036,0.6594027628957807,13.142940882321053,3,8,0.0,16399,316062344758808,17,38.0,512.442626953125,0.05329437553882599,16,0.0,0.0,1575420030,,,,0,,1,0.21,33.0,0.0,0.0,,,C,367971957168690
Raw,1684338444417,358674263000000,18,,-1368014988154224103,-0.33156585693359375,60.50039519323036,0.6594027628957807,13.142940882321053,3,14,0.0,16399,316062337820472,80,26.8,87.9156723022461,1.7920000553131104,16,0.0,0.0,1575420030,,,,0,,1,0.21,21.8,0.0,0.0,,,C,367971957168690
Raw,1684338444417,358674263000000,18,,-1368014988154224103,-0.33156585693359375,60.50039519323036,0.6594027628957807,13.142940882321053,3,1,0.0,49359,67644350909271,31,32.0,-467.6393127441406,0.6784999966621399,16,0.0,0.0,1602562560,,,,0,,3,-0.3,28.0,3852.01806640625,27.5080509185791,,,C,367971957168690
Raw,1684338444417,358674263000000,18,,-1368014988154224103,-0.33156585693359375,60.50039519323036,0.6594027628957807,13.142940882321053,3,29,0.0,16399,316048341773203,53,29.1,401.43939208984375,0.871999979019165,16,0.0,0.0,1561097980,,,,0,,5,-0.25,24.8,-1601.797119140625,29.0697021484375,,,I,367971957168690
Raw,1684338444417,358674263000000,18,,-1368014988154224103,-0.33156585693359375,60.50039519323036,0.6594027628957807,13.142940882321053,3,22,0.0,16399,316048332524545,31,33.1,-632.9141235351562,0.6255000233650208,16,0.0,0.0,1561097980,,,,0,,5,-0.25,28.8,-1601.797119140625,29.0697021484375,,,I,367971957168690
Raw,1684338444417,358674263000000,18,,-1368014988154224103,-0.33156585693359375,60.50039519323036,0.6594027628957807,13.142940882321053,3,19,0.0,16399,316048343350931,35,31.7,-238.21539306640625,0.7489999532699585,16,0.0,0.0,1561097980,,,,0,,5,-0.25,27.4,-1601.797119140625,29.0697021484375,,,I,367971957168690
Raw,1684338444417,358674263000000,18,,-1368014988154224103,-0.33156585693359375,60.50039519323036,0.6594027628957807,13.142940882321053,3,19,0.0,23567,316062331079829,19,36.3,-476.7540283203125,0.029595524072647095,16,0.0,0.0,1575420030,,,,0,,6,0.22,31.999999999999996,-1473.8114013671875,17.877229690551758,,,C,367971957168690
Raw,1684338444417,358674263000000,18,,-1368014988154224103,-0.33156585693359375,60.50039519323036,0.6594027628957807,13.142940882321053,3,24,0.0,23567,316062327486783,61,27.8,358.56085205078125,1.0010000467300415,16,0.0,0.0,1575420030,,,,0,,6,0.22,23.5,-1473.8114013671875,17.877229690551758,,,C,367971957168690
Fix,GPS,45.4090845700,11.8946385800,107.46588134765625,0.0,4.7443557,,1684338445000,0.3330165,,367972545824575,7.6193027,0,,,,
Fix,FLP,45.4090816000,11.8946204000,62.400001525878906,0.00032946395,6.455,,1684338444961,,,367972545824575,2.1528842,0,,,,
Status,1684338445000,17,0,1,2,1575420030,31.10,101.0,36.0,1,1,1,26.1
Status,1684338445000,17,1,1,3,1575420030,29.60,239.0,30.0,1,1,1,24.6
Status,1684338445000,17,2,1,8,1575420030,32.70,179.0,47.0,1,1,1,27.7
Status,1684338445000,17,3,1,14,1575420030,21.80,293.0,18.0,1,1,1,16.8
Status,1684338445000,17,4,1,27,1575420030,22.30,158.0,18.0,1,1,1,17.3
Status,1684338445000,17,5,1,32,1575420030,19.40,70.0,41.0,0,1,1,14.4
Status,1684338445000,17,6,2,136,1575420030,37.90,0.0,0.0,0,0,0,32.9
Status,1684338445000,17,7,3,1,1602562560,27.30,188.0,57.0,1,1,0,22.3
Status,1684338445000,17,8,5,29,1561097980,24.80,139.0,51.0,0,1,0,19.8
Status,1684338445000,17,9,5,22,1561097980,26.90,213.0,17.0,0,1,0,21.9
Status,1684338445000,17,10,5,20,1561097980,21.60,56.0,51.0,0,1,0,16.6
Status,1684338445000,17,11,5,19,1561097980,26.10,184.0,68.0,0,1,0,21.1
Status,1684338445000,17,12,6,7,1575420030,16.80,39.0,17.0,0,1,0,11.8
Status,1684338445000,17,13,6,10,1575420030,23.30,296.0,29.0,1,1,0,18.3
Status,1684338445000,17,14,6,19,1575420030,32.00,159.0,40.0,1,1,0,27.0
Status,1684338445000,17,15,6,24,1575420030,23.50,268.0,19.0,1,1,0,18.5
Status,1684338445000,17,16,6,33,1575420030,21.20,83.0,63.0,1,1,0,16.2
Raw,1684338445417,358675263000000,18,,-1368014988154224099,-0.9191999435424805,63.184423197526485,-3.2486714520368145,14.303837941924195,3,2,0.0,16399,316063340943255,21,36.1,410.08990478515625,0.08759104460477829,16,0.0,0.0,1575420030,,,,0,,1,0.1,31.1,0.0,0.0,,,C,367972964719210
Raw,1684338445417,358675263000000,18,,-1368014988154224099,-0.9191999435424805,63.184423197526485,-3.2486714520368145,14.303837941924195,3,3,0.0,16399,316063341519485,27,34.6,-571.5565795898438,0.6019999980926514,16,0.0,0.0,1575420030,,,,0,,1,0.1,29.6,0.0,0.0,,,C,367972964719210
Raw,1684338445417,358675263000000,18,,-1368014988154224099,-0.9191999435424805,63.184423197526485,-3.2486714520368145,14.303837941924195,3,8,0.0,16399,316063344757117,19,37.7,512.5548706054688,0.0632086768746376,16,0.0,0.0,1575420030,,,,0,,1,0.1,32.7,0.0,0.0,,,C,367972964719210
Raw,1684338445417,358675263000000,18,,-1368014988154224099,-0.9191999435424805,63.184423197526485,-3.2486714520368145,14.303837941924195,3,27,0.0,16399,316063336723821,70,27.3,717.5308837890625,1.7105000019073486,16,0.0,0.0,1575420030,,,,0,,1,0.1,22.3,0.0,0.0,,,C,367972964719210
Raw,1684338445417,358675263000000,18,,-1368014988154224099,-0.9191999435424805,63.184423197526485,-3.2486714520368145,14.303837941924195,3,32,0.0,16399,316063343079539,106,24.4,148.76206970214844,3.451000213623047,16,0.0,0.0,1575420030,,,,0,,1,0.1,19.4,0.0,0.0,,,C,367972964719210
Raw,1684338445417,358675263000000,18,,-1368014988154224099,-0.9191999435424805,63.184423197526485,-3.2486714520368145,14.303837941924195,3,1,0.0,49359,67645350910750,35,31.3,-467.48028564453125,0.7384999990463257,16,0.0,0.0,1602562560,,,,0,,3,-0.63,27.3,3852.01806640625,27.5080509185791,,,C,367972964719210
Raw,1684338445417,358675263000000,18,,-1368014988154224099,-0.9191999435424805,63.184423197526485,-3.2486714520368145,14.303837941924195,3,29,0.0,16399,316049341771830,53,29.1,402.4859924316406,0.871999979019165,16,0.0,0.0,1561097980,,,,0,,5,-0.47,24.8,-1601.797119140625,29.0697021484375,,,I,367972964719210
Raw,1684338445417,358675263000000,18,,-1368014988154224099,-0.9191999435424805,63.184423197526485,-3.2486714520368145,14.303837941924195,3,22,0.0,16399,316049332526643,40,31.2,-632.9525756835938,0.7354999780654907,16,0.0,0.0,1561097980,,,,0,,5,-0.47,26.9,-1601.797119140625,29.0697021484375,,,I,367972964719210
Raw,1684338445417,358675263000000,18,,-1368014988154224099,-0.9191999435424805,63.184423197526485,-3.2486714520368145,14.303837941924195,3,20,0.0,16399,316049342146913,80,25.9,341.15814208984375,1.8594999313354492,16,0.0,0.0,1561097980,,,,0,,5,-0.47,21.599999999999998,-1601.797119140625,29.0697021484375,,,I,367972964719210
Raw,1684338445417,358675263000000,18,,-1368014988154224099,-0.9191999435424805,63.184423197526485,-3.2486714520368145,14.303837941924195,3,19,0.0,16399,316049343351685,40,30.4,-238.8011016845703,0.8089999556541443,16,0.0,0.0,1561097980,,,,0,,5,-0.47,26.099999999999998,-1601.797119140625,29.0697021484375,,,I,367972964719210
Raw,1684338445417,358675263000000,18,,-1368014988154224099,-0.9191999435424805,63.184423197526485,-3.2486714520368145,14.303837941924195,3,19,0.0,23567,316063331081430,19,36.3,-476.70867919921875,0.029595524072647095,16,0.0,0.0,1575420030,,,,0,,6,0.11,31.999999999999996,-1473.8114013671875,17.877229690551758,,,C,367972964719210
Raw,1684338445417,358675263000000,18,,-1368014988154224099,-0.9191999435424805,63.184423197526485,-3.2486714520368145,14.303837941924195,3,33,0.0,23567,316063337422890,80,25.5,172.70101928710938,1.8819999694824219,16,0.0,0.0,1575420030,,,,0,,6,0.11,21.2,-1473.8114013671875,17.877229690551758,,,C,367972964719210
Fix,GPS,45.4090843600,11.8946384900,107.29339599609375,0.0,4.663687,,1684338446000,0.29068884,,367973545490252,7.3518596,0,,,,
Fix,FLP,45.4090818000,11.8946211000,62.400001525878906,0.00029991806,6.471,,1684338445506,,,367973090429629,2.1627767,0,,,,
Status,1684338446000,18,0,1,2,1575420030,30.40,101.0,36.0,1,1,1,25.4
Status,1684338446000,18,1,1,3,1575420030,29.80,239.0,30.0,1,1,1,24.8
Status,1684338446000,18,2,1,8,1575420030,32.70,179.0,47.0,1,1,1,27.7
Status,1684338446000,18,3,1,14,1575420030,20.40,293.0,18.0,1,1,1,15.4
Status,1684338446000,18,4,1,21,1575420030,21.90,2.0,80.0,0,1,1,16.9
Status,1684338446000,18,5,1,27,1575420030,22.30,158.0,18.0,1,1,1,17.3
Status,1684338446000,18,6,1,32,1575420030,19.40,70.0,41.0,1,1,1,14.4
Status,1684338446000,18,7,2,136,1575420030,38.20,0.0,0.0,0,0,0,33.2
Status,1684338446000,18,8,3,1,1602562560,26.80,188.0,57.0,1,1,0,21.8
Status,1684338446000,18,9,5,29,1561097980,25.10,139.0,51.0,0,1,0,20.1
Status,1684338446000,18,10,5,22,1561097980,27.20,213.0,17.0,0,1,0,22.2
Status,1684338446000,18,11,5,20,1561097980,21.60,56.0,51.0,0,1,0,16.6
Status,1684338446000,18,12,5,19,1561097980,27.00,184.0,68.0,0,1,0,22.0
Status,1684338446000,18,13,6,7,1575420030,16.80,39.0,17.0,0,1,0,11.8
Status,1684338446000,18,14,6,10,1575420030,20.40,296.0,29.0,1,1,0,15.4
Status,1684338446000,18,15,6,19,1575420030,31.40,159.0,40.0,1,1,0,26.4
Status,1684338446000,18,16,6,24,1575420030,22.70,268.0,19.0,1,1,0,17.7
Status,1684338446000,18,17,6,33,1575420030,21.20,83.0,63.0,1,1,0,16.2
Raw,1684338446417,358676263000000,18,,-1368014988154224103,-0.36136817932128906,62.46542761800811,-3.388227568137229,14.965465348081525,3,2,0.0,16399,316064340941910,24,35.4,411.7247314453125,0.6903843283653259,16,0.0,0.0,1575420030,,,,0,,1,0.31,30.4,0.0,0.0,,,C,367973958321658
Raw,1684338446417,358676263000000,18,,-1368014988154224103,-0.36136817932128906,62.46542761800811,-3.388227568137229,14.965465348081525,3,3,0.0,16399,316064341521391,27,34.8,-569.2445068359375,0.6019999980926514,16,0.0,0.0,1575420030,,,,0,,1,0.31,29.799999999999997,0.0,0.0,,,C,367973958321658
Raw,1684338446417,358676263000000,18,,-1368014988154224103,-0.36136817932128906,62.46542761800811,-3.388227568137229,14.965465348081525,3,8,0.0,16399,316064344755380,19,37.7,514.2198486328125,0.0632086768746376,16,0.0,0.0,1575420030,,,,0,,1,0.31,32.7,0.0,0.0,,,C,367973958321658
Raw,1684338446417,358676263000000,18,,-1368014988154224103,-0.36136817932128906,62.46542761800811,-3.388227568137229,14.965465348081525,3,14,0.0,16399,316064337819986,92,25.4,88.43898010253906,1.8819999694824219,16,0.0,0.0,1575420030,,,,0,,1,0.31,20.4,0.0,0.0,,,C,367973958321658
Raw,1684338446417,358676263000000,18,,-1368014988154224103,-0.36136817932128906,62.46542761800811,-3.388227568137229,14.965465348081525,3,21,0.0,16399,316064347954979,80,26.9,6.270176410675049,1.7619999647140503,16,0.0,0.0,1575420030,,,,0,,1,0.31,21.9,0.0,0.0,,,C,367973958321658
Raw,1684338446417,358676263000000,18,,-1368014988154224103,-0.36136817932128906,62.46542761800811,-3.388227568137229,14.965465348081525,3,1,0.0,49359,67646350912303,40,30.8,-465.0015869140625,0.7985000014305115,16,0.0,0.0,1602562560,,,,0,,3,-0.33,26.8,3852.01806640625,27.5080509185791,,,C,367973958321658
Raw,1684338446417,358676263000000,18,,-1368014988154224103,-0.36136817932128906,62.46542761800811,-3.388227568137229,14.965465348081525,3,29,0.0,16399,316050341770476,46,29.4,402.7836608886719,0.871999979019165,16,0.0,0.0,1561097980,,,,0,,5,-0.22,25.099999999999998,-1601.797119140625,29.0697021484375,,,I,367973958321658
Raw,1684338446417,358676263000000,18,,-1368014988154224103,-0.36136817932128906,62.46542761800811,-3.388227568137229,14.965465348081525,3,22,0.0,16399,316050332528767,35,31.5,-631.2050170898438,0.7354999780654907,16,0.0,0.0,1561097980,,,,0,,5,-0.22,27.2,-1601.797119140625,29.0697021484375,,,I,367973958321658
Raw,1684338446417,358676263000000,18,,-1368014988154224103,-0.36136817932128906,62.46542761800811,-3.388227568137229,14.965465348081525,3,19,0.0,16399,316050343352487,35,31.3,-236.17018127441406,0.7489999532699585,16,0.0,0.0,1561097980,,,,0,,5,-0.22,27.0,-1601.797119140625,29.0697021484375,,,I,367973958321658
Raw,1684338446417,358676263000000,18,,-1368014988154224103,-0.36136817932128906,62.46542761800811,-3.388227568137229,14.965465348081525,3,10,0.0,23567,316064330287260,92,24.7,-416.5528564453125,2.7235000133514404,16,0.0,0.0,1575420030,,,,0,,6,0.32,20.4,-1473.8114013671875,17.877229690551758,,,C,367973958321658
Raw,1684338446417,358676263000000,18,,-1368014988154224103,-0.36136817932128906,62.46542761800811,-3.388227568137229,14.965465348081525,3,19,0.0,23567,316064331083013,21,35.7,-475.085205078125,0.034105487167835236,16,0.0,0.0,1575420030,,,,0,,6,0.32,31.400000000000002,-1473.8114013671875,17.877229690551758,,,C,367973958321658
Raw,1684338446417,358676263000000,18,,-1368014988154224103,-0.36136817932128906,62.46542761800811,-3.388227568137229,14.965465348081525,3,24,0.0,23567,316064327484467,70,27.0,359.4457092285156,1.7090001106262207,16,0.0,0.0,1575420030,,,,0,,6,0.32,22.7,-1473.8114013671875,17.877229690551758,,,C,367973958321658
Fix,GPS,45.4090838200,11.8946387300,106.9053955078125,0.0,4.586238,,1684338447000,0.33941126,,367974545819939,7.1366777,0,,,,
Fix,FLP,45.4090823000,11.8946224000,62.400001525878906,0.00056697545,6.534,,1684338446675,,,367974259483900,2.17278,0,,,,
Fix,NLP,45.4090986000,11.8945820000,62.0,,12.956,,1684338447083,,,367974668000000,2.0704703,0,,,,
Status,1684338447000,18,0,1,2,1575420030,30.90,101.0,36.0,1,1,1,25.9
Status,1684338447000,18,1,1,3,1575420030,29.50,239.0,30.0,1,1,1,24.5
Status,1684338447000,18,2,1,8,1575420030,32.40,179.0,47.0,1,1,1,27.4
Status,1684338447000,18,3,1,14,1575420030,20.40,293.0,18.0,1,1,1,15.4
Status,1684338447000,18,4,1,21,1575420030,21.90,2.0,80.0,1,1,1,16.9
Status,1684338447000,18,5,1,27,1575420030,23.20,158.0,18.0,1,1,1,18.2
Status,1684338447000,18,6,1,32,1575420030,19.40,70.0,41.0,1,1,1,14.4
Status,1684338447000,18,7,2,136,1575420030,37.80,0.0,0.0,0,0,0,32.8
Status,1684338447000,18,8,3,1,1602562560,26.80,188.0,57.0,1,1,0,21.8
Status,1684338447000,18,9,5,29,1561097980,25.00,139.0,51.0,0,1,0,20.0
Status,1684338447000,18,10,5,22,1561097980,26.00,213.0,17.0,0,1,0,21.0
Status,1684338447000,18,11,5,20,1561097980,21.60,56.0,51.0,0,1,0,16.6
Status,1684338447000,18,12,5,19,1561097980,26.80,184.0,68.0,0,1,0,21.8
Status,1684338447000,18,13,6,7,1575420030,16.80,39.0,17.0,0,1,0,11.8
Status,1684338447000,18,14,6,10,1575420030,20.40,296.0,29.0,1,1,0,15.4
Status,1684338447000,18,15,6,19,1575420030,31.70,159.0,40.0,1,1,0,26.7
Status,1684338447000,18,16,6,24,1575420030,22.70,268.0,19.0,1,1,0,17.7
Status,1684338447000,18,17,6,33,1575420030,21.90,83.0,63.0,1,1,0,16.9
Raw,1684338447417,358677263000000,18,,-1368014988154224100,-0.9473800659179688,59.91976649966091,1.2296115317000762,13.811032314371047,3,2,0.0,16399,316065340940565,24,35.9,412.5196533203125,0.11950328946113586,16,0.0,0.0,1575420030,,,,0,,1,0.26,30.9,0.0,0.0,,,C,367974960371397
Raw,1684338447417,358677263000000,18,,-1368014988154224100,-0.9473800659179688,59.91976649966091,1.2296115317000762,13.811032314371047,3,3,0.0,16399,316065341523229,27,34.5,-569.063720703125,0.6019999980926514,16,0.0,0.0,1575420030,,,,0,,1,0.26,29.5,0.0,0.0,,,C,367974960371397
Raw,1684338447417,358677263000000,18,,-1368014988154224100,-0.9473800659179688,59.91976649966091,1.2296115317000762,13.811032314371047,3,8,0.0,16399,316065344753662,19,37.4,515.0631103515625,0.0632086768746376,16,0.0,0.0,1575420030,,,,0,,1,0.26,32.4,0.0,0.0,,,C,367974960371397
Raw,1684338447417,358677263000000,18,,-1368014988154224100,-0.9473800659179688,59.91976649966091,1.2296115317000762,13.811032314371047,3,27,0.0,16399,316065336718983,61,28.2,720.8134155273438,1.630500078201294,16,0.0,0.0,1575420030,,,,0,,1,0.26,23.2,0.0,0.0,,,C,367974960371397
Raw,1684338447417,358677263000000,18,,-1368014988154224100,-0.9473800659179688,59.91976649966091,1.2296115317000762,13.811032314371047,3,1,0.0,49359,67647350913719,40,30.8,-464.5806884765625,0.7985000014305115,16,0.0,0.0,1602562560,,,,0,,3,-0.42,26.8,3852.01806640625,27.5080509185791,,,C,367974960371397
Raw,1684338447417,358677263000000,18,,-1368014988154224100,-0.9473800659179688,59.91976649966091,1.2296115317000762,13.811032314371047,3,29,0.0,16399,316051341769226,46,29.3,405.1937255859375,0.871999979019165,16,0.0,0.0,1561097980,,,,0,,5,-0.28,25.0,-1601.797119140625,29.0697021484375,,,I,367974960371397
Raw,1684338447417,358677263000000,18,,-1368014988154224100,-0.9473800659179688,59.91976649966091,1.2296115317000762,13.811032314371047,3,22,0.0,16399,316051332530851,40,30.3,-630.3504638671875,0.7954999804496765,16,0.0,0.0,1561097980,,,,0,,5,-0.28,26.0,-1601.797119140625,29.0697021484375,,,I,367974960371397
Raw,1684338447417,358677263000000,18,,-1368014988154224100,-0.9473800659179688,59.91976649966091,1.2296115317000762,13.811032314371047,3,19,0.0,16399,316051343353255,40,31.1,-235.67088317871094,0.7489999532699585,16,0.0,0.0,1561097980,,,,0,,5,-0.28,26.8,-1601.797119140625,29.0697021484375,,,I,367974960371397
Raw,1684338447417,358677263000000,18,,-1368014988154224100,-0.9473800659179688,59.91976649966091,1.2296115317000762,13.811032314371047,3,7,0.0,23567,316065326733863,159,21.1,423.5841979980469,7.563499927520752,16,0.0,0.0,1575420030,,,,0,,6,0.25,16.8,-1473.8114013671875,17.877229690551758,,,C,367974960371397
Raw,1684338447417,358677263000000,18,,-1368014988154224100,-0.9473800659179688,59.91976649966091,1.2296115317000762,13.811032314371047,3,19,0.0,23567,316065331084597,21,36.0,-474.2495422363281,0.034105487167835236,16,0.0,0.0,1575420030,,,,0,,6,0.25,31.7,-1473.8114013671875,17.877229690551758,,,C,367974960371397
Raw,1684338447417,358677263000000,18,,-1368014988154224100,-0.9473800659179688,59.91976649966091,1.2296115317000762,13.811032314371047,3,33,0.0,23567,316065337421754,80,26.2,173.9664764404297,1.7920000553131104,16,0.0,0.0,1575420030,,,,0,,6,0.25,21.9,-1473.8114013671875,17.877229690551758,,,C,367974960371397
Fix,GPS,45.4090842500,11.8946371000,107.02783203125,0.0,4.3489413,,1684338448000,0.28301942,,367975545587959,7.2650123,0,,,,
Fix,FLP,45.4090842000,11.8946194000,62.0,0.013759351,6.596,,1684338447726,,,367975311632858,2.0788915,0,,,,
Status,1684338448000,17,0,1,2,1575420030,30.30,101.0,36.0,1,1,1,25.3
Status,1684338448000,17,1,1,3,1575420030,29.40,239.0,30.0,1,1,1,24.4
Status,1684338448000,17,2,1,8,1575420030,32.20,179.0,47.0,1,1,1,27.2
Status,1684338448000,17,3,1,14,1575420030,20.40,293.0,18.0,1,1,1,15.4
Status,1684338448000,17,4,1,27,1575420030,22.80,158.0,18.0,1,1,1,17.8
Status,1684338448000,17,5,1,32,1575420030,19.40,70.0,41.0,1,1,1,14.4
Status,1684338448000,17,6,2,136,1575420030,38.20,0.0,0.0,0,0,0,33.2
Status,1684338448000,17,7,3,1,1602562560,26.90,188.0,57.0,1,1,0,21.9
Status,1684338448000,17,8,5,29,1561097980,23.90,139.0,51.0,0,1,0,18.9
Status,1684338448000,17,9,5,22,1561097980,25.30,213.0,17.0,0,1,0,20.3
Status,1684338448000,17,10,5,20,1561097980,21.60,56.0,51.0,0,1,0,16.6
Status,1684338448000,17,11,5,19,1561097980,25.90,184.0,68.0,0,1,0,20.9
Status,1684338448000,17,12,6,7,1575420030,16.80,39.0,17.0,1,1,0,11.8
Status,1684338448000,17,13,6,10,1575420030,20.40,296.0,29.0,1,1,0,15.4
Status,1684338448000,17,14,6,19,1575420030,30.90,159.0,40.0,1,1,0,25.9
Status,1684338448000,17,15,6,24,1575420030,23.00,268.0,19.0,1,1,0,18.0
Status,1684338448000,17,16,6,33,1575420030,21.90,83.0,63.0,1,1,0,16.9
Raw,1684338448417,358678263000000,18,,-1368014988154224096,-0.775054931640625,62.19655188033357,3.4223792246220572,14.60880667533507,3,2,0.0,16399,316066340939195,24,35.3,411.6272277832031,0.11950328946113586,16,0.0,0.0,1575420030,,,,0,,1,0.15,30.299999999999997,0.0,0.0,,,C,367975962744157
Raw,1684338448417,358678263000000,18,,-1368014988154224096,-0.775054931640625,62.19655188033357,3.4223792246220572,14.60880667533507,3,3,0.0,16399,316066341525189,27,34.4,-570.024658203125,0.6019999980926514,16,0.0,0.0,1575420030,,,,0,,1,0.15,29.4,0.0,0.0,,,C,367975962744157
Raw,1684338448417,358678263000000,18,,-1368014988154224096,-0.775054931640625,62.19655188033357,3.4223792246220572,14.60880667533507,3,8,0.0,16399,316066344751989,19,37.2,514.2177734375,0.0632086768746376,16,0.0,0.0,1575420030,,,,0,,1,0.15,32.2,0.0,0.0,,,C,367975962744157
Raw,1684338448417,358678263000000,18,,-1368014988154224096,-0.775054931640625,62.19655188033357,3.4223792246220572,14.60880667533507,3,27,0.0,16399,316066336716683,70,27.8,720.3662109375,0.999500036239624,16,0.0,0.0,1575420030,,,,0,,1,0.15,22.8,0.0,0.0,,,C,367975962744157
Raw,1684338448417,358678263000000,18,,-1368014988154224096,-0.775054931640625,62.19655188033357,3.4223792246220572,14.60880667533507,3,1,0.0,49359,67648350915419,40,30.9,-464.3094482421875,0.7985000014305115,16,0.0,0.0,1602562560,,,,0,,3,-0.6,26.9,3852.01806640625,27.5080509185791,,,C,367975962744157
Raw,1684338448417,358678263000000,18,,-1368014988154224096,-0.775054931640625,62.19655188033357,3.4223792246220572,14.60880667533507,3,29,0.0,16399,316052341767782,61,28.2,403.6189880371094,0.9419999718666077,16,0.0,0.0,1561097980,,,,0,,5,-0.41,23.9,-1601.797119140625,29.0697021484375,,,I,367975962744157
Raw,1684338448417,358678263000000,18,,-1368014988154224096,-0.775054931640625,62.19655188033357,3.4223792246220572,14.60880667533507,3,22,0.0,16399,316052332532961,46,29.6,-631.2914428710938,0.8554999828338623,16,0.0,0.0,1561097980,,,,0,,5,-0.41,25.3,-1601.797119140625,29.0697021484375,,,I,367975962744157
Raw,1684338448417,358678263000000,18,,-1368014988154224096,-0.775054931640625,62.19655188033357,3.4223792246220572,14.60880667533507,3,19,0.0,16399,316052343354054,46,30.2,-236.61184692382812,0.8089999556541443,16,0.0,0.0,1561097980,,,,0,,5,-0.41,25.9,-1601.797119140625,29.0697021484375,,,I,367975962744157
Raw,1684338448417,358678263000000,18,,-1368014988154224096,-0.775054931640625,62.19655188033357,3.4223792246220572,14.60880667533507,3,19,0.0,23567,316066331086179,24,35.2,-475.08984375,0.043391816318035126,16,0.0,0.0,1575420030,,,,0,,6,0.18,30.900000000000002,-1473.8114013671875,17.877229690551758,,,C,367975962744157
Raw,1684338448417,358678263000000,18,,-1368014988154224096,-0.775054931640625,62.19655188033357,3.4223792246220572,14.60880667533507,3,24,0.0,23567,316066327482039,61,27.3,361.2154541015625,1.7090001106262207,16,0.0,0.0,1575420030,,,,0,,6,0.18,23.0,-1473.8114013671875,17.877229690551758,,,C,367975962744157
Fix,GPS,45.4090842500,11.8946367000,107.0086669921875,0.0,4.2979593,,1684338449000,0.26925823,,367976545861501,7.0846233,0,,,,
Fix,FLP,45.4090778000,11.8946156000,62.0,0.008941523,6.768,,1684338448895,,,367976480686087,2.0880933,0,,,,
Status,1684338449000,17,0,1,2,1575420030,30.50,101.0,36.0,1,1,1,25.5
Status,1684338449000,17,1,1,3,1575420030,28.50,239.0,30.0,1,1,1,23.5
Status,1684338449000,17,2,1,8,1575420030,32.50,179.0,47.0,1,1,1,27.5
Status,1684338449000,17,3,1,14,1575420030,21.70,293.0,18.0,1,1,1,16.7
Status,1684338449000,17,4,1,27,1575420030,23.10,158.0,18.0,1,1,1,18.1
Status,1684338449000,17,5,1,32,1575420030,19.40,70.0,41.0,1,1,1,14.4
Status,1684338449000,17,6,2,136,1575420030,37.70,0.0,0.0,0,0,0,32.7
Status,1684338449000,17,7,3,1,1602562560,27.00,188.0,57.0,1,1,0,22.0
Status,1684338449000,17,8,5,29,1561097980,23.90,139.0,51.0,0,1,0,18.9
Status,1684338449000,17,9,5,22,1561097980,28.60,213.0,17.0,0,1,0,23.6
Status,1684338449000,17,10,5,20,1561097980,21.60,56.0,51.0,0,1,0,16.6
Status,1684338449000,17,11,5,19,1561097980,24.80,184.0,68.0,0,1,0,19.8
Status,1684338449000,17,12,6,7,1575420030,16.80,39.0,17.0,1,1,0,11.8
Status,1684338449000,17,13,6,10,1575420030,21.60,296.0,29.0,1,1,0,16.6
Status,1684338449000,17,14,6,19,1575420030,31.50,159.0,40.0,1,1,0,26.5
Status,1684338449000,17,15,6,24,1575420030,23.80,268.0,19.0,1,1,0,18.8
Status,1684338449000,17,16,6,33,1575420030,20.80,83.0,63.0,1,1,0,15.8
Raw,1684338449417,358679263000000,18,,-1368014988154224104,-0.18093204498291016,59.815320128109306,0.862476055176124,13.417945102003603,3,2,0.0,16399,316067340937810,24,35.5,410.7879638671875,2.403027296066284,16,0.0,0.0,1575420030,,,,0,,1,0.54,30.5,0.0,0.0,,,C,367976961206969
Raw,1684338449417,358679263000000,18,,-1368014988154224104,-0.18093204498291016,59.815320128109306,0.862476055176124,13.417945102003603,3,3,0.0,16399,316067341527107,31,33.5,-570.2720947265625,0.6420000195503235,16,0.0,0.0,1575420030,,,,0,,1,0.54,28.5,0.0,0.0,,,C,367976961206969
Raw,1684338449417,358679263000000,18,,-1368014988154224104,-0.18093204498291016,59.815320128109306,0.862476055176124,13.417945102003603,3,8,0.0,16399,316067344750218,19,37.5,513.535400390625,0.0632086768746376,16,0.0,0.0,1575420030,,,,0,,1,0.54,32.5,0.0,0.0,,,C,367976961206969
Raw,1684338449417,358679263000000,18,,-1368014988154224104,-0.18093204498291016,59.815320128109306,0.862476055176124,13.417945102003603,3,14,0.0,16399,316067337818947,80,26.7,90.3799819946289,2.5420000553131104,16,0.0,0.0,1575420030,,,,0,,1,0.54,21.7,0.0,0.0,,,C,367976961206969
Raw,1684338449417,358679263000000,18,,-1368014988154224104,-0.18093204498291016,59.815320128109306,0.862476055176124,13.417945102003603,3,27,0.0,16399,316067336714260,61,28.1,718.8438720703125,0.9194999933242798,16,0.0,0.0,1575420030,,,,0,,1,0.54,23.1,0.0,0.0,,,C,367976961206969
Raw,1684338449417,358679263000000,18,,-1368014988154224104,-0.18093204498291016,59.815320128109306,0.862476055176124,13.417945102003603,3,1,0.0,49359,67649350916781,35,31.0,-465.7030944824219,0.7384999990463257,16,0.0,0.0,1602562560,,,,0,,3,0.09,27.0,3852.01806640625,27.5080509185791,,,C,367976961206969
Raw,1684338449417,358679263000000,18,,-1368014988154224104,-0.18093204498291016,59.815320128109306,0.862476055176124,13.417945102003603,3,22,0.0,16399,316053332535055,31,32.9,-631.445068359375,0.6754999756813049,16,0.0,0.0,1561097980,,,,0,,5,-0.13,28.599999999999998,-1601.797119140625,29.0697021484375,,,I,367976961206969
Raw,1684338449417,358679263000000,18,,-1368014988154224104,-0.18093204498291016,59.815320128109306,0.862476055176124,13.417945102003603,3,19,0.0,16399,316053343354810,53,29.1,-237.80250549316406,0.8689999580383301,16,0.0,0.0,1561097980,,,,0,,5,-0.13,24.8,-1601.797119140625,29.0697021484375,,,I,367976961206969
Raw,1684338449417,358679263000000,18,,-1368014988154224104,-0.18093204498291016,59.815320128109306,0.862476055176124,13.417945102003603,3,10,0.0,23567,316067330291466,80,25.9,-415.1542053222656,2.633500099182129,16,0.0,0.0,1575420030,,,,0,,6,0.51,21.599999999999998,-1473.8114013671875,17.877229690551758,,,C,367976961206969
Raw,1684338449417,358679263000000,18,,-1368014988154224104,-0.18093204498291016,59.815320128109306,0.862476055176124,13.417945102003603,3,19,0.0,23567,316067331087754,21,35.8,-475.8645935058594,0.034105487167835236,16,0.0,0.0,1575420030,,,,0,,6,0.51,31.499999999999996,-1473.8114013671875,17.877229690551758,,,C,367976961206969
Raw,1684338449417,358679263000000,18,,-1368014988154224104,-0.18093204498291016,59.815320128109306,0.862476055176124,13.417945102003603,3,24,0.0,23567,316067327480896,61,28.1,360.340087890625,0.9210000038146973,16,0.0,0.0,1575420030,,,,0,,6,0.51,23.8,-1473.8114013671875,17.877229690551758,,,C,367976961206969
Raw,1684338449417,358679263000000,18,,-1368014988154224104,-0.18093204498291016,59.815320128109306,0.862476055176124,13.417945102003603,3,33,0.0,23567,316067337420611,92,25.1,172.834228515625,1.8819999694824219,16,0.0,0.0,1575420030,,,,0,,6,0.51,20.8,-1473.8114013671875,17.877229690551758,,,C,367976961206969
Fix,GPS,45.4090842300,11.8946364600,106.896484375,0.0,4.4948244,,1684338450000,0.156205,,367977545564417,7.6048517,0,,,,
Fix,FLP,45.4090762000,11.8946145000,62.0,0.0012998852,6.816,,1684338449481,,,367977065212025,2.0904377,0,,,,
Raw,1684338450417,358680263000000,18,,-1368014988154224106,-0.3416004180908203,64.18795965146273,0.06506311735029209,14.472969879251082,3,2,0.0,16399,316068340936366,40,31.4,411.6051940917969,0.7534999847412109,16,0.0,0.0,1575420030,,,,0,,1,-2.01,26.4,0.0,0.0,,,C,367977957717854
Raw,1684338450417,358680263000000,18,,-1368014988154224106,-0.3416004180908203,64.18795965146273,0.06506311735029209,14.472969879251082,3,3,0.0,16399,316068341528911,46,30.4,-570.8429565429688,0.8119999766349792,16,0.0,0.0,1575420030,,,,0,,1,-2.01,25.4,0.0,0.0,,,C,367977957717854
Raw,1684338450417,358680263000000,18,,-1368014988154224106,-0.3416004180908203,64.18795965146273,0.06506311735029209,14.472969879251082,3,8,0.0,16399,316068344748503,27,34.6,513.9927368164062,0.5975000262260437,16,0.0,0.0,1575420030,,,,0,,1,-2.01,29.6,0.0,0.0,,,C,367977957717854
Raw,1684338450417,358680263000000,18,,-1368014988154224106,-0.3416004180908203,64.18795965146273,0.06506311735029209,14.472969879251082,3,1,0.0,49359,67650350918649,46,29.6,-464.8519592285156,0.8585000038146973,16,0.0,0.0,1602562560,,,,0,,3,-3.06,25.6,3852.01806640625,27.5080509185791,,,C,367977957717854
Raw,1684338450417,358680263000000,18,,-1368014988154224106,-0.3416004180908203,64.18795965146273,0.06506311735029209,14.472969879251082,3,8,0.0,49359,67650350758511,139,21.3,339.1625671386719,7.55150032043457,16,0.0,0.0,1605374980,,,,0,,3,-3.06,17.3,3852.01806640625,27.5080509185791,,,C,367977957717854
Raw,1684338450417,358680263000000,18,,-1368014988154224106,-0.3416004180908203,64.18795965146273,0.06506311735029209,14.472969879251082,3,29,0.0,16399,316054341765110,61,27.5,402.5820007324219,1.6880000829696655,16,0.0,0.0,1561097980,,,,0,,5,-2.65,23.2,-1601.797119140625,29.0697021484375,,,I,367977957717854
Raw,1684338450417,358680263000000,18,,-1368014988154224106,-0.3416004180908203,64.18795965146273,0.06506311735029209,14.472969879251082,3,22,0.0,16399,316054332537143,40,30.4,-632.0115966796875,0.7954999804496765,16,0.0,0.0,1561097980,,,,0,,5,-2.65,26.099999999999998,-1601.797119140625,29.0697021484375,,,I,367977957717854
Raw,1684338450417,358680263000000,18,,-1368014988154224106,-0.3416004180908203,64.18795965146273,0.06506311735029209,14.472969879251082,3,20,0.0,16399,316054342141188,122,23.2,342.74249267578125,4.299499988555908,16,0.0,0.0,1561097980,,,,0,,5,-2.65,18.9,-1601.797119140625,29.0697021484375,,,I,367977957717854
Raw,1684338450417,358680263000000,18,,-1368014988154224106,-0.3416004180908203,64.18795965146273,0.06506311735029209,14.472969879251082,3,19,0.0,23567,316068331089360,35,31.9,-475.443115234375,2.8844573497772217,16,0.0,0.0,1575420030,,,,0,,6,-1.98,27.599999999999998,-1473.8114013671875,17.877229690551758,,,C,367977957717854
Status,1684338450000,18,0,1,2,1575420030,26.40,101.0,36.0,1,1,1,21.4
Status,1684338450000,18,1,1,3,1575420030,25.40,239.0,30.0,1,1,1,20.4
Status,1684338450000,18,2,1,8,1575420030,29.60,179.0,47.0,1,1,1,24.6
Status,1684338450000,18,3,1,14,1575420030,21.70,293.0,18.0,1,1,1,16.7
Status,1684338450000,18,4,1,27,1575420030,23.10,158.0,18.0,1,1,1,18.1
Status,1684338450000,18,5,1,32,1575420030,19.40,70.0,41.0,1,1,1,14.4
Status,1684338450000,18,6,2,136,1575420030,34.40,0.0,0.0,0,0,0,29.4
Status,1684338450000,18,7,3,1,1602562560,25.60,188.0,57.0,1,1,0,20.6
Status,1684338450000,18,8,3,8,1605374980,17.30,49.0,59.0,0,1,0,12.3
Status,1684338450000,18,9,5,29,1561097980,23.20,139.0,51.0,0,1,0,18.2
Status,1684338450000,18,10,5,22,1561097980,26.10,213.0,17.0,0,1,0,21.1
Status,1684338450000,18,11,5,20,1561097980,18.90,56.0,51.0,0,1,0,13.9
Status,1684338450000,18,12,5,19,1561097980,24.80,184.0,68.0,0,1,0,19.8
Status,1684338450000,18,13,6,7,1575420030,16.80,39.0,17.0,1,1,0,11.8
Status,1684338450000,18,14,6,10,1575420030,21.60,296.0,29.0,1,1,0,16.6
Status,1684338450000,18,15,6,19,1575420030,27.60,159.0,40.0,1,1,0,22.6
Status,1684338450000,18,16,6,24,1575420030,23.80,268.0,19.0,1,1,0,18.8
Status,1684338450000,18,17,6,33,1575420030,20.80,83.0,63.0,1,1,0,15.8
Fix,GPS,45.4090841100,11.8946363500,106.86956787109375,0.0,4.6340904,,1684338451000,0.4420407,,367978545452907,7.7781916,0,,,,
Fix,FLP,45.4090757000,11.8946146000,62.0,0.00006802179,6.916,,1684338450649,,,367978234262858,2.1080892,0,,,,
